Title,Nb rating,Prices,Nb visits,Rating,Annulation,Duration,Language,City,lat,lon,image
Helicopter flight over New York,902.0,183.3,13 026 voyageurs,9.1,"Free ! Cancel free of charge up to 24 hours before the activity. If you cancel sooner or you do not show up, no refund will be offered.",15 min - 20 min,[1],New York,40.70099,-74.008783,https://cdn2.civitatis.com/estados-unidos/nueva-york/galeria/paseo-helicoptero-manhattan.jpg
Ticket to the 9/11 Memorial and Museum,233.0,28.3,5 054 voyageurs,9.1,"Free ! Cancel free of charge up to 24 hours before the activity. If you cancel sooner or you do not show up, no refund will be offered.",-1,[-1],New York,40.7117367,-74.0133007,https://cdn2.civitatis.com/estados-unidos/nueva-york/galeria/zona-cero-11-s.jpg
Empire State ticket,1692.0,45.2,29 125 voyageurs,9.1,Non refundable. This activity does not admit any cancellation or modification.,-1,[-1],New York,40.7487836,-73.9861577,https://cdn2.civitatis.com/estados-unidos/nueva-york/galeria/vistas-desde-mirador-empire-state.jpg
Go City : New York Explorer Pass,1007.0,65.2,30 575 voyageurs,9.1,"Free ! Cancel free of charge up to 24 hours before the activity. If you cancel sooner or you do not show up, no refund will be offered.",-1,[-1],New York,40.712955,-74.0013617,https://cdn2.civitatis.com/estados-unidos/nueva-york/galeria/vista-observatorio-empire-state-explorer-pass.jpg
Skip-the-line One World ticket,977.0,44.2,14 313 voyageurs,9.3,Non refundable. This activity does not admit any cancellation or modification.,-1,[-1],New York,40.712955,-74.013814,https://cdn2.civitatis.com/estados-unidos/nueva-york/galeria/owo-new-york.jpg
Ticket for the Summit One Vanderbilt,125.0,40.1,3 868 voyageurs,9.4,"Free ! Cancel free of charge up to 24 hours before the activity. If you cancel sooner or you do not show up, no refund will be offered.",-1,[-1],New York,40.7525307,-73.9784592,https://cdn2.civitatis.com/estados-unidos/nueva-york/galeria/edificio-summit-one-vanderbilt.jpg
Outlet Shopping Tour,2524.0,99.6,32 815 voyageurs,8.6,"Free ! Cancel free of charge up to 48 hours before the activity. If you cancel sooner or you do not show up, no refund will be offered.",7h30 - 12h,[-1],New York,40.7621877,-73.9839759,https://cdn2.civitatis.com/estados-unidos/nueva-york/galeria/woodbury-common-premium-outlets.jpg
Billet pour The Edge,167.0,39.6,4 821 voyageurs,8.4,"If you cancel right after booking, you will have a penalty of 0 of the total amount. If you do not show up, no refund will be offered.",-1,[-1],New York,40.7541309,-74.0009561,https://cdn2.civitatis.com/estados-unidos/nueva-york/galeria/suelo-cristal-edge.jpg
NYC Sightseeing Bus,144.0,41.1,2 592 voyageurs,7.6,"Free ! Cancel free of charge up to 24 hours before the activity. If you cancel sooner or you do not show up, no refund will be offered.",1 jour,"[1, 3]",New York,40.712955,-74.0013617,https://cdn2.civitatis.com/estados-unidos/nueva-york/galeria/autobus-turistico-nueva-york.jpg
Boat trip in lower Manhattan,86.0,50.1,1 786 voyageurs,8.7,Non refundable. This activity does not admit any cancellation or modification.,1h30,[1],New York,40.762668,-74.001401,https://cdn2.civitatis.com/estados-unidos/nueva-york/galeria/paseo-barco-manhattan-vistas.jpg
New York Contrasts Tour,92.0,34.9,911 voyageurs,9.1,Non refundable. This activity does not allow cancellation.,5 heures,[1],New York,40.712955,-74.0013617,https://cdn2.civitatis.com/estados-unidos/nueva-york/galeria/bronx.jpg
Bike rental in New York,74.0,56.6,1 012 voyageurs,9.1,"Free ! Cancel free of charge up to 7 days before the activity. If you cancel more than 24 hours in advance, we will refund you 50%. If you cancel sooner or you do not show up, no refund will be offered.",1 jour,[-1],New York,40.712955,-74.0013617,https://cdn2.civitatis.com/estados-unidos/nueva-york/galeria/brooklyn-bridge-bicicleta.jpg
Statue of Liberty and Ellis Island Tour,974.0,28.8,11 731 voyageurs,7.8,"Free ! Cancel free of charge up to 3 days before the activity. If you cancel sooner or you do not show up, no refund will be offered.",4 heures,[1],New York,40.703332,-74.014062,https://cdn2.civitatis.com/estados-unidos/nueva-york/galeria/estatua-libertad.jpg
Harlem Guided Tour with Gospel Mass,40.0,47.9,443 voyageurs,9.2,Non refundable. This activity does not allow cancellation.,4 heures,[2],New York,40.758379,-73.988866,https://cdn2.civitatis.com/estados-unidos/nueva-york/galeria/misa-gospel-harlem.jpg
Tour in the footsteps of Gossip Girl,3.0,70.8,143 voyageurs,8.7,"Free ! Cancel free of charge up to 48 hours before the activity. If you cancel sooner or you do not show up, no refund will be offered.",3 heures,[1],New York,40.7578484,-73.9756912,https://cdn2.civitatis.com/estados-unidos/nueva-york/galeria/gossip-girl.jpg
New York CityPASS,58.0,62.3,2 204 voyageurs,8.8,Non refundable. This activity does not admit any cancellation or modification.,9 jours,[-1],New York,40.712955,-74.0013617,https://cdn2.civitatis.com/estados-unidos/nueva-york/galeria/tarjeta-new-york-city-pass.jpg
Ticket to the New York Yankees,-1.0,121.8,36 voyageurs,-1.0,Non refundable. This activity does not admit any cancellation or modification.,2h30,[-1],New York,40.829571,-73.926128,https://cdn2.civitatis.com/estados-unidos/nueva-york/galeria/yankee-statium.jpg
Ticket to MoMA,92.0,34.0,2 067 voyageurs,8.7,"If you cancel right after booking, we will refund 100% of the total amount. If you do not show up, no refund will be offered.",-1,[2],New York,40.7613964,-73.9768106,https://cdn2.civitatis.com/estados-unidos/nueva-york/galeria/van-gogh-moma.jpg
Circuit Sex and the City à New York,15.0,23.6,123 voyageurs,8.3,"Free ! Cancel free of charge up to 48 hours before the activity. If you cancel sooner or you do not show up, no refund will be offered.",3h30,[1],New York,40.7639186,-73.9748223,https://cdn2.civitatis.com/estados-unidos/nueva-york/galeria/greenwich-village-nueva-york.jpg
Boat trip around Manhattan,31.0,62.3,383 voyageurs,8.7,Non refundable. This activity does not admit any cancellation or modification.,2h30,[1],New York,40.762668,-74.001401,https://cdn2.civitatis.com/estados-unidos/nueva-york/galeria/barco-manhattan-completo.jpg
Free tour in New York,6414.0,41.5,57 370 voyageurs,9.3,-1,2h30,[1],New York,40.7043347,-74.0138948,https://cdn2.civitatis.com/estados-unidos/nueva-york/galeria/memorial-9-11.jpg
eSIM card with Internet in the United States,16.0,0.0,,6.4,Non refundable. This activity does not admit any cancellation or modification.,10 jours - 30 jours,[-1],New York,40.712955,-74.0013617,https://cdn2.civitatis.com/estados-unidos/nueva-york/galeria/mujer-trabajo-movil-nueva-york.jpg
New York rooftop tour,56.0,21.2,1 020 voyageurs,6.8,"Free ! Cancel free of charge up to 48 hours before the activity. If you cancel sooner or you do not show up, no refund will be offered.",4 heures,[1],New York,40.7606465,-73.9883533,https://cdn2.civitatis.com/estados-unidos/nueva-york/galeria/terraza-lounge-bar.jpg
Washington DC Day Trip from New York,47.0,74.6,451 voyageurs,8.9,"Free ! Cancel free of charge up to 24 hours before the activity. If you cancel sooner or you do not show up, no refund will be offered.",15 heures,[2],New York,40.75769,-73.99166,https://cdn2.civitatis.com/estados-unidos/nueva-york/galeria/museu-ar-espaco.jpg
Sunset Cruise,334.0,159.6,5 114 voyageurs,8.5,Non refundable. This activity does not admit any cancellation or modification.,2 heures,[1],New York,40.762668,-74.001401,https://cdn2.civitatis.com/estados-unidos/nueva-york/galeria/estatua-libertad.jpg
Carriage ride in Central Park,14.0,41.5,270 voyageurs,7.7,Non refundable. This activity does not allow cancellation.,45 minutes,[-1],New York,40.766866,-73.979473,https://cdn2.civitatis.com/estados-unidos/nueva-york/galeria/central-park.jpg
New York Night Helicopter Flight,26.0,140.7,480 voyageurs,9.3,"Free ! Cancel free of charge up to 24 hours before the activity. If you cancel sooner or you do not show up, no refund will be offered.",30 minutes,[1],New York,40.6157109,-74.2456057,https://cdn2.civitatis.com/estados-unidos/nueva-york/galeria/helicotero-nueva-york.jpg
Ticket for The Phantom of the Opera,265.0,230.5,2 901 voyageurs,9.0,Non refundable. This activity does not admit any cancellation or modification.,2h30,[-1],New York,40.758526,-73.988142,https://cdn2.civitatis.com/estados-unidos/nueva-york/galeria/fantasma-opera-1.jpg
The New York Pass®,284.0,116.2,7 570 voyageurs,8.6,"Free ! Cancel free of charge up to 24 hours before the activity. If you cancel sooner or you do not show up, no refund will be offered.",1 jour - 10 jours,[-1],New York,40.712955,-74.0013617,https://cdn2.civitatis.com/estados-unidos/nueva-york/galeria/estatua-libertad.jpg
Philadelphia and an Amish County Tour,14.0,134.1,169 voyageurs,8.3,"Free ! Cancel free of charge up to 24 hours before the activity. If you cancel sooner or you do not show up, no refund will be offered.",14 heures,[2],New York,40.75763,-73.99158,https://cdn2.civitatis.com/estados-unidos/nueva-york/galeria/filadelfia.jpg
Billet pour Chicago,78.0,159.6,712 voyageurs,9.6,Non refundable. This activity does not admit any cancellation or modification.,2h30,[-1],New York,40.761182,-73.987136,https://cdn2.civitatis.com/estados-unidos/nueva-york/galeria/chicago-1.jpg
"4-Day Niagara, Washington, and Philadelphia Tour",-1.0,104.8,20 voyageurs,-1.0,"Free ! Cancel free of charge up to 24 hours before the activity. If you cancel sooner or you do not show up, no refund will be offered.",4 jours,[2],New York,40.712955,-74.0013617,https://cdn2.civitatis.com/estados-unidos/nueva-york/galeria/cementerio-arlington.jpg
Ticket to Top of the Rock + 9/11 Museum,6.0,741.7,263 voyageurs,7.3,Non refundable. This activity does not admit any cancellation or modification.,2 jours,[-1],New York,40.712955,-74.0013617,https://cdn2.civitatis.com/estados-unidos/nueva-york/galeria/vista-nueva-york-atardecer-top-of-the-rock.jpg
Quirky Brooklyn Bike Tour,-1.0,66.1,6 voyageurs,-1.0,Non refundable. This activity does not allow cancellation.,6 heures,[2],New York,40.712955,-74.0013617,https://cdn2.civitatis.com/estados-unidos/nueva-york/galeria/bicicleta-brooklin-nueva-york.jpg
Boston Day Trip,10.0,99.0,135 voyageurs,8.6,"Free ! Cancel free of charge up to 24 hours before the activity. If you cancel sooner or you do not show up, no refund will be offered.",14 heures,[2],New York,40.7568546,-73.99146523,https://cdn2.civitatis.com/estados-unidos/nueva-york/galeria/boston.jpg
Private tour in New York,2.0,159.6,5 voyageurs,10.0,"Free ! Cancel free of charge up to 24 hours before the activity. If you cancel sooner or you do not show up, no refund will be offered.",-1,[2],New York,40.712955,-74.0013617,https://cdn2.civitatis.com/estados-unidos/nueva-york/galeria/manhattan-paysage.jpg
Brooklyn Street Art and Hipster Culture Tour,1.0,85.0,4 voyageurs,10.0,Non refundable. This activity does not allow cancellation.,3h30,[2],New York,40.706633,-73.923184,https://cdn2.civitatis.com/estados-unidos/nueva-york/galeria/arte-callejero-brooklyn.jpg
Visit the must-see places in New York,-1.0,49.0,4 voyageurs,-1.0,Non refundable. This activity does not allow cancellation.,4 heures,[2],New York,40.758696,-73.988747,https://cdn2.civitatis.com/estados-unidos/nueva-york/galeria/central-park.jpg
2-Day Washington and Philadelphia Tour,-1.0,102.9,4 voyageurs,-1.0,"Free ! Cancel free of charge up to 24 hours before the activity. If you cancel sooner or you do not show up, no refund will be offered.",2 jours,[2],New York,40.712955,-74.0013617,https://cdn2.civitatis.com/estados-unidos/nueva-york/galeria/filadelfia.jpg
Guided tour of New York,7.0,354.3,66 voyageurs,6.0,"Free ! Cancel free of charge up to 24 hours before the activity. If you cancel sooner or you do not show up, no refund will be offered.",6 heures,[1],New York,40.758709,-73.985228,https://cdn2.civitatis.com/estados-unidos/nueva-york/galeria/catedral-san-patricio.jpg
NYC Night Tour,6.0,84.1,53 voyageurs,9.7,Non refundable. This activity does not allow cancellation.,4 heures,[1],New York,40.712955,-74.0013617,https://cdn2.civitatis.com/estados-unidos/nueva-york/galeria/vistas-manhattan-noche.jpg
New York dinner cruise,288.0,51.9,3 723 voyageurs,9.0,Non refundable. This activity does not admit any cancellation or modification.,2h30 - 3h,[-1],New York,40.747537,-74.009272,https://cdn2.civitatis.com/estados-unidos/nueva-york/galeria/crucero-nocturno-manhattan-nueva-york.jpg
Niagara Falls Tour,417.0,170.4,5 947 voyageurs,7.7,"Free ! Cancel free of charge up to 24 hours before the activity. If you cancel sooner or you do not show up, no refund will be offered.",19h - 20h,[1],New York,40.7595892,-73.9846122,https://cdn2.civitatis.com/estados-unidos/nueva-york/galeria/barco-cataratas-niagara.jpg
Ticket to the Museum of the City of New York,-1.0,235.2,62 voyageurs,-1.0,"Free ! Cancel free of charge up to 24 hours before the activity. If you cancel sooner or you do not show up, no refund will be offered.",-1,[-1],New York,40.792646,-73.952167,https://cdn2.civitatis.com/estados-unidos/nueva-york/galeria/disfrutando-exposicion-museo-nueva-york.jpg
Cinema circuit through the scenes of films and series,13.0,18.9,134 voyageurs,7.5,Non refundable. This activity does not allow cancellation.,3 heures,[2],New York,40.761939,-73.983476,https://cdn2.civitatis.com/estados-unidos/nueva-york/galeria/empire-state.jpg
"Visite de Lower East Side, Chinatown et Little Italy",-1.0,57.6,2 voyageurs,-1.0,"Free ! Cancel free of charge up to 24 hours before the activity. If you cancel sooner or you do not show up, no refund will be offered.",3h30,[2],New York,40.72361887190441,73.99125536462113,https://cdn2.civitatis.com/estados-unidos/nueva-york/galeria/street-art-lower-east-side.jpg
Visit through the scenes of movies and series of Central Park,9.0,49.0,202 voyageurs,7.3,"Free ! Cancel free of charge up to 48 hours before the activity. If you cancel sooner or you do not show up, no refund will be offered.",2 heures,[2],New York,40.7652026,-73.9751271,https://cdn2.civitatis.com/estados-unidos/nueva-york/galeria/central-park-new-york.jpg
"Union Square, High Line and Chelsea Tour",1.0,34.0,2 voyageurs,10.0,"Free ! Cancel free of charge up to 7 days before the activity. If you cancel more than 3 days in advance, we will refund you 50%. If you cancel sooner or you do not show up, no refund will be offered.",3h30,[2],New York,40.74213,-73.99122,https://cdn2.civitatis.com/estados-unidos/nueva-york/galeria/disfrutando-nueva-york.jpg
The Ride Experience,7.0,51.9,71 voyageurs,8.6,Non refundable. This activity does not allow cancellation.,1h15,[1],New York,40.75748,-73.989836,https://cdn2.civitatis.com/estados-unidos/nueva-york/galeria/diversion-the-ride.jpg
Niagara Falls 2 Day Tour,-1.0,74.6,49 voyageurs,-1.0,"Free ! Cancel free of charge up to 24 hours before the activity. If you cancel sooner or you do not show up, no refund will be offered.",2 jours,[2],New York,40.75667,-73.99111,https://cdn2.civitatis.com/estados-unidos/nueva-york/galeria/catarata-niagara-tour-dos-dias.jpg
St. Patrick's Cathedral Ticket with Audio Guide,4.0,354.3,87 voyageurs,6.0,"Free ! Cancel free of charge up to 24 hours before the activity. If you cancel sooner or you do not show up, no refund will be offered.",-1,"[2, -1]",New York,40.7587924,-73.9769005,https://cdn2.civitatis.com/estados-unidos/nueva-york/galeria/catedral-san-patricio-iluminada.jpg
"Brooklyn Bridge, DUMBO and Brooklyn Heights Tour",-1.0,18.9,1 voyageur,-1.0,"Free ! Cancel free of charge up to 48 hours before the activity. If you cancel sooner or you do not show up, no refund will be offered.",3h30,[2],New York,40.69975105996872,-73.99121687276364,https://cdn2.civitatis.com/estados-unidos/nueva-york/galeria/vistas-dumbo-atardecer.jpg
Bike ride in Central Park,73.0,49.0,812 voyageurs,9.4,"Free ! Cancel free of charge up to 7 days before the activity. If you cancel more than 24 hours in advance, we will refund you 50%. If you cancel sooner or you do not show up, no refund will be offered.",2 heures,[2],New York,40.76322,-73.977152,https://cdn2.civitatis.com/estados-unidos/nueva-york/galeria/tour-central-park-bicicleta.jpg
"Niagara, Toronto, Philadelphia and Washington in 5 days",-1.0,56.5,3 voyageurs,-1.0,"Free ! Cancel free of charge up to 24 hours before the activity. If you cancel sooner or you do not show up, no refund will be offered.",5 jours,[2],New York,40.75667,-73.99111,https://cdn2.civitatis.com/estados-unidos/nueva-york/galeria/estatua-lincoln-tour-cuatro-dias.jpg
Little Italy and Chinatown Food Tour,1.0,892.9,10 voyageurs,8.0,"Free ! Cancel free of charge up to 48 hours before the activity. If you cancel sooner or you do not show up, no refund will be offered.",3 heures,[1],New York,40.71435328229808,-74.00422201897808,https://cdn2.civitatis.com/estados-unidos/nueva-york/galeria/little-italy-gastronomia.jpg
Lower Manhattan Lunch Cruise,-1.0,74.6,34 voyageurs,-1.0,Non refundable. This activity does not admit any cancellation or modification.,2 heures,[-1],New York,40.747402,-74.008074,https://cdn2.civitatis.com/estados-unidos/nueva-york/galeria/comida-barco-paseo-nueva-york.jpg
NYC Superhero Discovery Tour,-1.0,104.8,281 voyageurs,-1.0,"Free ! Cancel free of charge up to 7 days before the activity. If you cancel more than 3 days in advance, we will refund you 50%. If you cancel sooner or you do not show up, no refund will be offered.",3h30,[2],New York,40.753213,-73.980282,https://cdn2.civitatis.com/estados-unidos/nueva-york/galeria/globo-daily-news.jpg
Billet pour Wicked,13.0,55.7,40 voyageurs,9.2,Non refundable. This activity does not admit any cancellation or modification.,2h30,[-1],New York,40.762361,-73.985344,https://cdn2.civitatis.com/estados-unidos/nueva-york/galeria/wicked-1.jpg
Circuit in the footsteps of The Sopranos series,1.0,144.5,484 voyageurs,10.0,"Free ! Cancel free of charge up to 48 hours before the activity. If you cancel sooner or you do not show up, no refund will be offered.",4 heures,[1],New York,40.7541979,-73.9901121,https://cdn2.civitatis.com/estados-unidos/nueva-york/galeria/sopranoland.jpg
Billet pour Madame Tussauds,16.0,68.0,9 voyageurs,8.9,Non refundable. This activity does not admit any cancellation or modification.,-1,[-1],New York,40.7564504,-73.9887887,https://cdn2.civitatis.com/estados-unidos/nueva-york/galeria/esculturas-oscars-museo-cera.jpg
Moulin Rouge ticket,1.0,38.0,111 voyageurs,10.0,Non refundable. This activity does not admit any cancellation or modification.,2h40,[-1],New York,40.759279,-73.9891203,https://cdn2.civitatis.com/estados-unidos/nueva-york/galeria/teatro-moulin-rouge.jpg
Sailboat rental with captain,-1.0,103.9,13 voyageurs,-1.0,"If you cancel more than 6 days in advance, we will refund you 85%. If you cancel sooner or you do not show up, no refund will be offered.",2h - 3h,[-1],New York,40.7128,-74.0154611,https://cdn2.civitatis.com/estados-unidos/nueva-york/galeria/disfrutando-travesia-velero-nueva-york.jpg
Billet pour le Top of The Rock,3.0,614.2,2 192 voyageurs,9.3,Non refundable. This activity does not admit any cancellation or modification.,-1,[-1],New York,40.75890959,-73.97901434,https://cdn2.civitatis.com/estados-unidos/nueva-york/galeria/top-rock-central-park.jpg
Ticket to SPYSCAPE,-1.0,41.1,12 voyageurs,-1.0,Non refundable. This activity does not admit any cancellation or modification.,-1,[-1],New York,40.7653131,-73.983746,https://cdn2.civitatis.com/estados-unidos/nueva-york/galeria/sala-spyscape.jpg
Washington DC and Philadelphia Tour,146.0,40.1,64 voyageurs,8.2,"Free ! Cancel free of charge up to 24 hours before the activity. If you cancel sooner or you do not show up, no refund will be offered.",17 heures,"[1, 3]",New York,40.759617,-73.984572,https://cdn2.civitatis.com/estados-unidos/nueva-york/galeria/capitolio-washingtondc.jpg
Food tour through the East Village,-1.0,140.7,12 voyageurs,-1.0,Non refundable. This activity does not allow cancellation.,3 heures,[2],New York,40.734,-73.984722,https://cdn2.civitatis.com/estados-unidos/nueva-york/galeria/food-tour-new-york-east-village.jpg
Billet pour LEGOLAND New York,-1.0,69.0,3 voyageurs,-1.0,Non refundable. This activity does not admit any cancellation or modification.,-1,[-1],New York,41.3827869,-74.3102287,https://cdn2.civitatis.com/estados-unidos/nueva-york/galeria/dragon-legoland.jpg
The Tour Experience,4.0,77.1,47 voyageurs,6.0,Non refundable. This activity does not allow cancellation.,1h30,[1],New York,40.758275,-73.985669,https://cdn2.civitatis.com/estados-unidos/nueva-york/galeria/autobus-the-tour.jpg
Private New York City Limo Tour,-1.0,36.8,255 voyageurs,-1.0,"Free ! Cancel free of charge up to 3 days before the activity. If you cancel sooner or you do not show up, no refund will be offered.",-1,[1],New York,40.712955,-74.0013617,https://cdn2.civitatis.com/estados-unidos/nueva-york/galeria/limusina-nueva-york.jpg
"Southampton, Sag Harbor and Tanger Outlets Tour",-1.0,590.5,24 voyageurs,-1.0,"Free ! Cancel free of charge up to 24 hours before the activity. If you cancel sooner or you do not show up, no refund will be offered.",1 jour,[2],New York,40.75667,-73.99111,https://cdn2.civitatis.com/estados-unidos/nueva-york/galeria/southampton.jpg
"Ticket to MJ, the Michael Jackson Musical",4.0,159.6,4 voyageurs,9.5,Non refundable. This activity does not admit any cancellation or modification.,2 heures,[-1],New York,40.763145,-73.984315,https://cdn2.civitatis.com/estados-unidos/nueva-york/galeria/actor-musical-michael-jackson.jpg
Guided tour in Central Park,-1.0,181.4,99 voyageurs,-1.0,"Free ! Cancel free of charge up to 24 hours before the activity. If you cancel sooner or you do not show up, no refund will be offered.",3h30,[2],New York,40.78320704415846,-73.9736073,https://cdn2.civitatis.com/estados-unidos/nueva-york/galeria/lago-central-park.jpg
High speed boat ride,6.0,69.0,1 409 voyageurs,8.7,Non refundable. This activity does not admit any cancellation or modification.,30 minutes,[1],New York,40.762668,-74.001401,https://cdn2.civitatis.com/estados-unidos/nueva-york/galeria/the-beast-estatua-libertad.jpg
Harlem Food Walking Tour,-1.0,28.3,1 534 voyageurs,-1.0,"Free ! Cancel free of charge up to 15 days before the activity. If you cancel more than 48 hours in advance, we will refund you 85%. If you cancel sooner or you do not show up, no refund will be offered.",4 heures,[1],New York,40.758294,-73.989046,https://cdn2.civitatis.com/estados-unidos/nueva-york/galeria/soul-food-pollo-frito.jpg
Private NYC Bike Tour,-1.0,93.5,2 275 voyageurs,-1.0,"Free ! Cancel free of charge up to 48 hours before the activity. If you cancel sooner or you do not show up, no refund will be offered.",2 heures,[2],New York,40.712955,-74.0013617,https://cdn2.civitatis.com/estados-unidos/nueva-york/galeria/brooklyn-bridge-bike.jpg
Lower Manhattan Discovery Tour,-1.0,187.0,20 voyageurs,-1.0,"Free ! Cancel free of charge up to 7 days before the activity. If you cancel more than 3 days in advance, we will refund you 50%. If you cancel sooner or you do not show up, no refund will be offered.",3h30,[2],New York,40.703514,-74.01084,https://cdn2.civitatis.com/estados-unidos/nueva-york/galeria/fearlessgirl-manhattan-nueva-york.jpg
"Guided tour of SoHo, Greenwich Village and Meatpacking District",-1.0,51.9,315 voyageurs,-1.0,"If you cancel more than 3 days in advance, we will refund you 50%. If you cancel sooner or you do not show up, no refund will be offered.",3h30,[2],New York,40.72199501008664,-73.99734288625493,https://cdn2.civitatis.com/estados-unidos/nueva-york/galeria/tienda-musica-alternativa.jpg
Central Park Electric Scooter Tour,4.0,49.0,2 voyageurs,5.5,"Free ! Cancel free of charge up to 48 hours before the activity. If you cancel sooner or you do not show up, no refund will be offered.",2 heures,[2],New York,40.7664739,-73.9800485,https://cdn2.civitatis.com/estados-unidos/nueva-york/galeria/puente-bow-central-park.jpg
Open Top Bus Night Tour,43.0,53.8,1 667 voyageurs,7.0,"Free ! Cancel free of charge up to 24 hours before the activity. If you cancel sooner or you do not show up, no refund will be offered.",1h30,[2],New York,40.760232,-73.984437,https://cdn2.civitatis.com/estados-unidos/nueva-york/galeria/times-square-noche.jpg
NBA Ticket: New York Knicks,87.0,41.6,64 voyageurs,9.0,Non refundable. This activity does not allow cancellation.,3 heures,[-1],New York,40.7505085,-73.9956274,https://cdn2.civitatis.com/estados-unidos/nueva-york/galeria/madison-square-garden-knicks.jpg
Ticket to The Lion King,218.0,114.5,97 voyageurs,9.6,Non refundable. This activity does not admit any cancellation or modification.,2h30,[-1],New York,40.757797,-73.986408,https://cdn2.civitatis.com/estados-unidos/nueva-york/galeria/rey-leon-3.jpg
Ticket to Radio City Music Hall,3.0,164.1,9 voyageurs,10.0,"Free ! Cancel free of charge up to 48 hours before the activity. If you cancel sooner or you do not show up, no refund will be offered.",-1,[-1],New York,40.761124,-73.981907,https://cdn2.civitatis.com/estados-unidos/nueva-york/galeria/exterior-radio-city-music-hall.jpg
Gospel mass in Harlem,21.0,29.2,567 voyageurs,7.4,"Free ! Cancel free of charge up to 24 hours before the activity. If you cancel sooner or you do not show up, no refund will be offered.",1 heure,[1],New York,40.809216,-73.947325,https://cdn2.civitatis.com/estados-unidos/nueva-york/galeria/misa-gospel-interior.jpg
Brooklyn Christmas Spirit Tour,-1.0,28.3,2 726 voyageurs,-1.0,"Free ! Cancel free of charge up to 7 days before the activity. If you cancel more than 3 days in advance, we will refund you 50%. If you cancel sooner or you do not show up, no refund will be offered.",3h30,[2],New York,40.704205,-73.986455,https://cdn2.civitatis.com/estados-unidos/nueva-york/galeria/iluminacion-navidad-casas-brooklyn.jpg
Billet pour Aladdin,136.0,51.9,1 304 voyageurs,9.5,Non refundable. This activity does not admit any cancellation or modification.,2h30,[-1],New York,40.756095,-73.98787,https://cdn2.civitatis.com/estados-unidos/nueva-york/galeria/aladdin-1.jpg
Ticket to the New York Rangers,4.0,131.1,28 voyageurs,10.0,Non refundable. This activity does not allow cancellation.,1h30,[-1],New York,40.7505085,-73.9956274,https://cdn2.civitatis.com/estados-unidos/nueva-york/galeria/madison-square-garden-rangers.jpg
Ticket to Harry Potter and the Cursed Child,-1.0,262.2,61 voyageurs,-1.0,Non refundable. This activity does not admit any cancellation or modification.,5h20,[-1],New York,40.7570589,-73.9877576,https://cdn2.civitatis.com/estados-unidos/nueva-york/galeria/escenas-harry-potter-legado-maldito.jpg
Excursion to Boston + Shopping in the outlets of New York,5.0,188.0,173 voyageurs,10.0,"Free ! Cancel free of charge up to 3 days before the activity. If you cancel sooner or you do not show up, no refund will be offered.",18 heures,"[1, 3]",New York,40.758182,-73.989075,https://cdn2.civitatis.com/estados-unidos/nueva-york/galeria/vista-rascacielos-boston.jpg
Boat trip in New York,-1.0,155.9,263 voyageurs,-1.0,"Free ! Cancel free of charge up to 24 hours before the activity. If you cancel sooner or you do not show up, no refund will be offered.",1h30,[1],New York,40.7012113,-74.0155982,https://cdn2.civitatis.com/estados-unidos/nueva-york/galeria/vista-aerea-ellis-island-nueva-york.jpg
Visit to Queens,-1.0,47.2,,-1.0,"Free ! Cancel free of charge up to 7 days before the activity. If you cancel more than 3 days in advance, we will refund you 50%. If you cancel sooner or you do not show up, no refund will be offered.",3h30,[2],New York,40.760032,-73.830308,https://cdn2.civitatis.com/estados-unidos/nueva-york/galeria/murales-barrio-queens.jpg
Madison Square Garden Tour,39.0,51.9,7 922 voyageurs,8.3,"Free ! Cancel free of charge up to 48 hours before the activity. If you cancel sooner or you do not show up, no refund will be offered.",-1,[-1],New York,40.750827,-73.99436,https://cdn2.civitatis.com/estados-unidos/nueva-york/galeria/exterior-cancha-madison-square-garden.jpg
Wedding with Elvis in Las Vegas,259.0,33.0,550 voyageurs,9.1,"Free ! Cancel free of charge up to 7 days before the activity. If you cancel sooner or you do not show up, no refund will be offered.",-1,[2],Las Vegas,36.2057143,-115.1548737,https://cdn2.civitatis.com/estados-unidos/las-vegas/galeria/boda-las-vegas-elvis.jpg
Battlefield Shooting Experience,169.0,204.1,22 voyageurs,9.7,"Free ! Cancel free of charge up to 48 hours before the activity. If you cancel sooner or you do not show up, no refund will be offered.",-1,[1],Las Vegas,36.2057143,-115.1548737,https://cdn2.civitatis.com/estados-unidos/las-vegas/galeria/battlefield-civitatis.jpg
Horseshoe Bend and Antelope Canyon X Tour,-1.0,108.6,19 voyageurs,-1.0,"Free ! Cancel free of charge up to 24 hours before the activity. If you cancel sooner or you do not show up, no refund will be offered.",13 heures,[1],Las Vegas,36.2057143,-115.1548737,https://cdn2.civitatis.com/estados-unidos/las-vegas/galeria/canon-antilope-x.jpg
V - The Ultimate Variety Show,1.0,178.5,2 506 voyageurs,10.0,Non refundable. This activity does not allow cancellation.,1h15,[-1],Las Vegas,36.113854,-115.177358,https://cdn2.civitatis.com/estados-unidos/las-vegas/galeria/acrobacia-v-variety-show.jpg
Pass Go City Las Vegas Explorer,6.0,65.6,2 voyageurs,8.3,"Free ! Cancel free of charge up to 24 hours before the activity. If you cancel sooner or you do not show up, no refund will be offered.",-1,[-1],Las Vegas,36.2057143,-115.1548737,https://cdn2.civitatis.com/estados-unidos/las-vegas/galeria/bus-vegas.jpg
Grand Canyon West Rim Tour,40.0,55.7,306 voyageurs,9.5,"Free ! Cancel free of charge up to 24 hours before the activity. If you cancel sooner or you do not show up, no refund will be offered.",9h - 11h,[2],Las Vegas,36.09562,-115.17606,https://cdn2.civitatis.com/estados-unidos/las-vegas/galeria/skywalk-civitatis.jpg
eSIM card with Internet in the United States,16.0,34.5,7 330 voyageurs,6.4,Non refundable. This activity does not admit any cancellation or modification.,10 jours - 30 jours,[-1],Las Vegas,36.2057143,-115.1548737,https://cdn2.civitatis.com/estados-unidos/nueva-york/galeria/mujer-trabajo-movil-nueva-york.jpg
Offer: Grand Canyon + Las Vegas,368.0,216.3,296 voyageurs,9.7,"Free ! Cancel free of charge up to 3 days before the activity. If you cancel sooner or you do not show up, no refund will be offered.",12h - 14h,[1],Las Vegas,36.2057143,-115.1548737,https://cdn2.civitatis.com/estados-unidos/las-vegas/galeria/excursion-gran-canon-colorado.jpg
Antelope Canyon Tour,43.0,21.2,8 voyageurs,7.4,"Free ! Cancel free of charge up to 24 hours before the activity. If you cancel sooner or you do not show up, no refund will be offered.",12 heures,[2],Las Vegas,36.0954885,-115.176187,https://cdn2.civitatis.com/estados-unidos/las-vegas/galeria/canon-antilope-luz.jpg
Billet pour Madame Tussauds,1.0,212.6,428 voyageurs,10.0,Non refundable. This activity does not admit any cancellation or modification.,-1,[-1],Las Vegas,36.1212352,-115.1715527,https://cdn2.civitatis.com/estados-unidos/las-vegas/galeria/drake-madame-tussauds.jpg
3 Day Arizona Desert Tour,-1.0,197.4,533 voyageurs,-1.0,"Free ! Cancel free of charge up to 24 hours before the activity. If you cancel sooner or you do not show up, no refund will be offered.",3 jours,[2],Las Vegas,36.0959041,-115.1762217,https://cdn2.civitatis.com/estados-unidos/las-vegas/galeria/vista-canon-antilope-arizona.jpg
Grand Canyon Full Tour by Private Plane,219.0,34.9,161 voyageurs,8.7,"Free ! Cancel free of charge up to 48 hours before the activity. If you cancel sooner or you do not show up, no refund will be offered.",-1,[1],Las Vegas,36.2057143,-115.1548737,https://cdn2.civitatis.com/estados-unidos/las-vegas/galeria/vistas-gran-canon.jpg
Death Valley Tour,-1.0,557.5,285 voyageurs,-1.0,"Free ! Cancel free of charge up to 48 hours before the activity. If you cancel sooner or you do not show up, no refund will be offered.",-1,[2],Las Vegas,36.2057143,-115.1548737,https://cdn2.civitatis.com/estados-unidos/las-vegas/galeria/museo-borax-valle-muerte.jpg
Go City : Las Vegas All-Inclusive Pass,17.0,315.6,10 voyageurs,9.4,"Free ! Cancel free of charge up to 24 hours before the activity. If you cancel sooner or you do not show up, no refund will be offered.",2 jours - 5 jours,[-1],Las Vegas,36.2057143,-115.1548737,https://cdn2.civitatis.com/estados-unidos/las-vegas/galeria/high-roller-vistas.jpg
Las Vegas Night Tour,884.0,244.7,10 voyageurs,9.3,"Free ! Cancel free of charge up to 3 days before the activity. If you cancel sooner or you do not show up, no refund will be offered.",4 heures,[1],Las Vegas,36.2057143,-115.1548737,https://cdn2.civitatis.com/estados-unidos/las-vegas/galeria/cartel-las-vegas-nevada.jpg
"Tickets for Michael Jackson ONE, Cirque du Soleil",11.0,112.4,338 voyageurs,8.0,Non refundable. This activity does not allow cancellation.,1h30,[-1],Las Vegas,36.0918777,-115.175245,https://cdn2.civitatis.com/estados-unidos/las-vegas/galeria/acrobacias-michael.jpg
Aerobatics flight,1.0,60.4,3 voyageurs,10.0,Non refundable. This activity does not allow cancellation.,-1,[1],Las Vegas,36.2057143,-115.1548737,https://cdn2.civitatis.com/estados-unidos/las-vegas/galeria/avion-acrobatico.jpg
Las Vegas Sightseeing Bus,20.0,131.1,98 voyageurs,5.5,"Free ! Cancel free of charge up to 24 hours before the activity. If you cancel sooner or you do not show up, no refund will be offered.",1 jour,[1],Las Vegas,36.2057143,-115.1548737,https://cdn2.civitatis.com/estados-unidos/las-vegas/galeria/bus-turistico-las-vegas.jpg
Private plane ride over the Grand Canyon,30.0,343.9,15 voyageurs,9.1,"Free ! Cancel free of charge up to 48 hours before the activity. If you cancel sooner or you do not show up, no refund will be offered.",-1,"[2, -1]",Las Vegas,36.2057143,-115.1548737,https://cdn2.civitatis.com/estados-unidos/las-vegas/galeria/foto-interior-avioneta-gran-canon.jpg
"Tickets for O, Cirque du Soleil",5.0,42.5,31 voyageurs,8.4,Non refundable. This activity does not allow cancellation.,1h30,[-1],Las Vegas,36.112001,-115.175285,https://cdn2.civitatis.com/estados-unidos/las-vegas/galeria/o-show-cirque-du-soleil.jpg
Grand Canyon Wedding + Helicopter,-1.0,197.4,140 voyageurs,-1.0,"Free ! Cancel free of charge up to 3 days before the activity. If you cancel sooner, we will refund you 50%. If you do not show up, no refund will be offered.",-1,[2],Las Vegas,36.2057143,-115.1548737,https://cdn2.civitatis.com/estados-unidos/las-vegas/galeria/gran-canon-panoramica.jpg
4-Day Death Valley and Yosemite Tour to San Francisco,-1.0,154.2,147 voyageurs,-1.0,"Free ! Cancel free of charge up to 7 days before the activity. If you cancel sooner or you do not show up, no refund will be offered.",4 jours,[2],Las Vegas,36.1126822,-115.1632191,https://cdn2.civitatis.com/estados-unidos/las-vegas/galeria/marmota-yosemite.jpg
South Rim Private Jet Tour,21.0,3704.0,6 voyageurs,9.2,"Free ! Cancel free of charge up to 48 hours before the activity. If you cancel sooner or you do not show up, no refund will be offered.",-1,[1],Las Vegas,36.2057143,-115.1548737,https://cdn2.civitatis.com/estados-unidos/las-vegas/galeria/south-rim.jpg
Excursion to Disneyland California,-1.0,751.2,884 voyageurs,-1.0,"Free ! Cancel free of charge up to 7 days before the activity. If you cancel sooner or you do not show up, no refund will be offered.",-1,[-1],Las Vegas,36.2057143,-115.1548737,https://cdn2.civitatis.com/estados-unidos/las-vegas/galeria/cars-land-disneyland-california.jpg
Marriage in the Valley of Fire,-1.0,547.1,292 voyageurs,-1.0,"Free ! Cancel free of charge up to 3 days before the activity. If you cancel sooner, we will refund you 50%. If you do not show up, no refund will be offered.",-1,[2],Las Vegas,36.2057143,-115.1548737,https://cdn2.civitatis.com/estados-unidos/las-vegas/galeria/novia-valle-fuego.jpg
Nathan Burton Magic Show Ticket,-1.0,424.2,24 voyageurs,-1.0,Non refundable. This activity does not allow cancellation.,1h15,[-1],Las Vegas,36.11068,-115.1689233,https://cdn2.civitatis.com/estados-unidos/las-vegas/galeria/show-magia-vegas.jpg
Self-Guided Boulder City Tour,-1.0,1196.0,7 voyageurs,-1.0,"Free ! Cancel free of charge up to 24 hours before the activity. If you cancel sooner or you do not show up, no refund will be offered.",-1,[-1],Las Vegas,36.2057143,-115.1548737,https://cdn2.civitatis.com/estados-unidos/las-vegas/galeria/boulder-city.jpg
Helicopter flight in Las Vegas,33.0,39.1,49 voyageurs,9.4,"Free ! Cancel free of charge up to 3 days before the activity. If you cancel sooner or you do not show up, no refund will be offered.",-1,[1],Las Vegas,36.2057143,-115.1548737,https://cdn2.civitatis.com/estados-unidos/las-vegas/galeria/salir-de-fiesta.jpg
3-Day Grand Canyon and Utah Tour,-1.0,23.6,153 voyageurs,-1.0,"Free ! Cancel free of charge up to 14 days before the activity. If you cancel sooner or you do not show up, no refund will be offered.",3 jours,[2],Las Vegas,36.1470343,-115.1553887,https://cdn2.civitatis.com/estados-unidos/las-vegas/galeria/parque-nacional-zion-utah.jpg
Pole dancing lessons in Las Vegas,-1.0,136.0,5 voyageurs,-1.0,Non refundable. This activity does not allow cancellation.,1h15,[-1],Las Vegas,36.11068,-115.1689233,https://cdn2.civitatis.com/estados-unidos/las-vegas/galeria/amigas-clase-pole-dance-stripper-101.jpg
Private North Premium Outlets Shopping Tour,4.0,656.7,26 voyageurs,10.0,"Free ! Cancel free of charge up to 3 days before the activity. If you cancel sooner or you do not show up, no refund will be offered.",-1,[-1],Las Vegas,36.2057143,-115.1548737,https://cdn2.civitatis.com/estados-unidos/las-vegas/galeria/las-vegas-premium-outlets.jpg
Ticket to the Mob Museum,-1.0,56.1,21 voyageurs,-1.0,"Free ! Cancel free of charge up to 24 hours before the activity. If you cancel sooner or you do not show up, no refund will be offered.",-1,[-1],Las Vegas,36.1727989,-115.1413454,https://cdn2.civitatis.com/estados-unidos/las-vegas/galeria/subfusil-thompson.jpg
Excursion au canyon de Zion,1.0,165.3,5 voyageurs,10.0,"Free ! Cancel free of charge up to 24 days before the activity. If you cancel sooner or you do not show up, no refund will be offered.",10 heures,[2],Las Vegas,36.0969,-115.17582,https://cdn2.civitatis.com/estados-unidos/las-vegas/galeria/canon-zion.jpg
"Tickets for KÀ, Cirque du Soleil",10.0,28.3,,9.2,Non refundable. This activity does not allow cancellation.,1h30,[-1],Las Vegas,36.102593,-115.170676,https://cdn2.civitatis.com/estados-unidos/las-vegas/galeria/puesta-escena-espectaculo-ka.jpg
Billet pour Vegas! The Show,10.0,197.4,19 voyageurs,9.0,Non refundable. This activity does not allow cancellation.,1h30,[-1],Las Vegas,36.109168,-115.168949,https://cdn2.civitatis.com/estados-unidos/las-vegas/galeria/Kj2lX7nu1pwOYfU.jpg
Universal Studios Hollywood Tour,-1.0,130.0,57 voyageurs,-1.0,"If you cancel more than 7 days in advance, you will have to pay a penalty of 159 US$ (150.20 €). If you cancel sooner or you do not show up, no refund will be offered.",-1,[-1],Las Vegas,36.2057143,-115.1548737,https://cdn2.civitatis.com/estados-unidos/las-vegas/galeria/universal-studios-hollywood.jpg
Bryce Canyon and Zion Canyon Tour,-1.0,70.3,18 voyageurs,-1.0,"Free ! Cancel free of charge up to 24 hours before the activity. If you cancel sooner or you do not show up, no refund will be offered.",13 heures,[1],Las Vegas,36.1241092,-115.1726084,https://cdn2.civitatis.com/estados-unidos/las-vegas/galeria/ver-canon-zion.jpg
Grand Canyon Helicopter Tour,59.0,480.9,151 voyageurs,9.2,"Free ! Cancel free of charge up to 3 days before the activity. If you cancel sooner or you do not show up, no refund will be offered.",-1,[1],Las Vegas,36.2057143,-115.1548737,https://cdn2.civitatis.com/estados-unidos/las-vegas/galeria/en-helicoptero.jpg
"Tickets for LOVE, Cirque du Soleil",16.0,93.5,54 voyageurs,9.4,Non refundable. This activity does not allow cancellation.,1h30,[-1],Las Vegas,36.12122,-115.173454,https://cdn2.civitatis.com/estados-unidos/las-vegas/galeria/love-beatles.jpg
Aerial combat in aerobatic aircraft,-1.0,499.8,19 voyageurs,-1.0,Non refundable. This activity does not allow cancellation.,-1,[1],Las Vegas,36.2057143,-115.1548737,https://cdn2.civitatis.com/estados-unidos/las-vegas/galeria/combate-aereo.jpg
Ticket to Zombie Burlesque,-1.0,135.5,110 voyageurs,-1.0,Non refundable. This activity does not allow cancellation.,1h15,[-1],Las Vegas,36.113854,-115.177358,https://cdn2.civitatis.com/estados-unidos/las-vegas/galeria/zombie-burlesque-cabaret-vegas.jpg
Universal Studios Hollywood + Disneyland California in 2 days,-1.0,1014.0,7 voyageurs,-1.0,"If you cancel more than 7 days in advance, you will have to pay a penalty of 159 US$ (150.20 €). If you cancel sooner or you do not show up, no refund will be offered.",-1,[1],Las Vegas,36.2057143,-115.1548737,https://cdn2.civitatis.com/estados-unidos/las-vegas/galeria/zona-simpsons-universal-studios-hollywood.jpg
The Invictus Experience: Spying in Las Vegas,-1.0,56.1,5 voyageurs,-1.0,"If you cancel more than 3 days in advance, we will refund you 85%. If you cancel sooner or you do not show up, no refund will be offered.",-1,[1],Las Vegas,36.2057143,-115.1548737,https://cdn2.civitatis.com/estados-unidos/las-vegas/galeria/sastre-lujo-invictus-experience.jpg
Hiking in the Valley of Fire,1.0,896.7,14 voyageurs,10.0,"Free ! Cancel free of charge up to 24 hours before the activity. If you cancel sooner or you do not show up, no refund will be offered.",-1,[1],Las Vegas,36.2057143,-115.1548737,https://cdn2.civitatis.com/estados-unidos/las-vegas/galeria/atardecer-senderismo-valle-fuego.jpg
Helicopter shooting,-1.0,2074.0,139 voyageurs,-1.0,"Free ! Cancel free of charge up to 48 hours before the activity. If you cancel sooner, we will refund you 100%. If you do not show up, no refund will be offered.",4h - 6h,[1],Las Vegas,35.8449215,-115.5574254,https://cdn2.civitatis.com/estados-unidos/las-vegas/galeria/mujer-disparando-helicoptero-objetivo.jpg
Las Vegas Luxury Food Tour,-1.0,112.4,37 voyageurs,-1.0,Non refundable. This activity does not allow cancellation.,3 heures,[1],Las Vegas,36.107257,-115.175954,https://cdn2.civitatis.com/estados-unidos/las-vegas/galeria/comida-lujo-las-vegas.jpg
Grand Canyon Sunset Tour,3.0,614.2,9 voyageurs,9.3,"Free ! Cancel free of charge up to 3 days before the activity. If you cancel sooner or you do not show up, no refund will be offered.",-1,[1],Las Vegas,36.2057143,-115.1548737,https://cdn2.civitatis.com/estados-unidos/las-vegas/galeria/valle-fuego-atardecer.jpg
"Ticket for Mystery, Cirque du Soleil",7.0,188.0,33 voyageurs,8.6,Non refundable. This activity does not admit any cancellation or modification.,1h30,[-1],Las Vegas,36.124582,-115.170676,https://cdn2.civitatis.com/estados-unidos/las-vegas/galeria/puesta-escena-mystere.jpg
Red Rock Canyon Electric Bike Ride,-1.0,528.2,60 voyageurs,-1.0,"Free ! Cancel free of charge up to 24 hours before the activity. If you cancel sooner or you do not show up, no refund will be offered.",-1,[2],Las Vegas,36.2057143,-115.1548737,https://cdn2.civitatis.com/estados-unidos/las-vegas/galeria/canon-red-rock.jpg
7 Day Tour from Las Vegas to San Francisco,-1.0,117.9,2 559 voyageurs,-1.0,"Free ! Cancel free of charge up to 7 days before the activity. If you cancel sooner or you do not show up, no refund will be offered.",7 jours,[2],Las Vegas,36.1474931,-115.1566671,https://cdn2.civitatis.com/estados-unidos/las-vegas/galeria/tunel-arbol-yosemite.jpg
Open Top Bus Night Tour,-1.0,107.7,2 452 voyageurs,-1.0,"Free ! Cancel free of charge up to 24 hours before the activity. If you cancel sooner or you do not show up, no refund will be offered.",3 heures,[1],Las Vegas,36.11721327,-115.1679588,https://cdn2.civitatis.com/estados-unidos/las-vegas/galeria/las-vegas.jpg
2-Day Grand Canyon and Horseshoe Bend Tour,-1.0,1573.0,602 voyageurs,-1.0,"Free ! Cancel free of charge up to 7 days before the activity. If you cancel sooner or you do not show up, no refund will be offered.",-1,[2],Las Vegas,36.2057143,-115.1548737,https://cdn2.civitatis.com/estados-unidos/las-vegas/galeria/mirador-gran-canon.jpg
Billet pour Beatleshow,2.0,47.2,1 356 voyageurs,10.0,Non refundable. This activity does not allow cancellation.,1h15,[-1],Las Vegas,36.1091693,-115.1711457,https://cdn2.civitatis.com/estados-unidos/las-vegas/galeria/beatleshow.jpg
Flight in weightlessness,-1.0,292.9,31 voyageurs,-1.0,Non refundable. This activity does not allow cancellation.,4 heures,[1],Las Vegas,36.0840912,-115.1532053,https://cdn2.civitatis.com/estados-unidos/las-vegas/galeria/grupo-vuelo-gravedad-cero-las-vegas.jpg
Zion National Park Tour,-1.0,75.5,8 voyageurs,-1.0,"Free ! Cancel free of charge up to 24 hours before the activity. If you cancel sooner or you do not show up, no refund will be offered.",13 heures,[1],Las Vegas,36.2057143,-115.1548737,https://cdn2.civitatis.com/estados-unidos/las-vegas/galeria/zion-canyon-walls.jpg
"7-Day Tour to Yellowstone, the Rockies, Bryce Canyon and Grand Teton",-1.0,7748.0,8 225 voyageurs,-1.0,"Free ! Cancel free of charge up to 48 hours before the activity. If you cancel sooner or you do not show up, no refund will be offered.",7 jours,[2],Las Vegas,36.1126822,-115.1632191,https://cdn2.civitatis.com/estados-unidos/las-vegas/galeria/manada-bisontes-yellowstone.jpg
Boston Harbor Boat Ride,-1.0,121.8,,-1.0,Non refundable. This activity does not admit any cancellation or modification.,1 heure,[1],Boston,42.3597895,-71.0507847,https://cdn2.civitatis.com/estados-unidos/boston/galeria/barco-paseo-puerto-boston.jpg
Billet pour le Boston Tea Party Ships & Museum,-1.0,1455.0,22 voyageurs,-1.0,Non refundable. This activity does not allow cancellation.,-1,[-1],Boston,42.35210321,-71.05133873,https://cdn2.civitatis.com/estados-unidos/boston/galeria/boston-tea-party-ship-museum.jpg
eSIM card with Internet in the United States,16.0,40.1,122 voyageurs,6.4,Non refundable. This activity does not admit any cancellation or modification.,10 jours - 30 jours,[-1],Boston,42.3630547,-71.0664598,https://cdn2.civitatis.com/estados-unidos/nueva-york/galeria/mujer-trabajo-movil-nueva-york.jpg
Guided tour of MIT,-1.0,30.1,6 voyageurs,-1.0,"Free ! Cancel free of charge up to 24 hours before the activity. If you cancel sooner or you do not show up, no refund will be offered.",1h10,[1],Boston,42.3640655,-71.0952352,https://cdn2.civitatis.com/estados-unidos/boston/galeria/great-dome-mit.jpg
Go City Boston Explorer Pass,2.0,21.2,5 voyageurs,9.0,"Free ! Cancel free of charge up to 24 hours before the activity. If you cancel sooner or you do not show up, no refund will be offered.",-1,[-1],Boston,42.3630547,-71.0664598,https://cdn2.civitatis.com/estados-unidos/boston/galeria/detalle-go-city-boston-explorer-pass.jpg
Boat trip at sunset,2.0,18.4,217 voyageurs,8.0,Non refundable. This activity does not admit any cancellation or modification.,1h30,[1],Boston,42.3597895,-71.0507847,https://cdn2.civitatis.com/estados-unidos/boston/galeria/atardecer-boston-barco.jpg
Guided tour of Harvard,14.0,49.1,60 voyageurs,8.1,"Free ! Cancel free of charge up to 24 hours before the activity. If you cancel sooner or you do not show up, no refund will be offered.",1h10,[1],Boston,42.3733659,-71.12115,https://cdn2.civitatis.com/estados-unidos/boston/galeria/estatua-john-harvard.jpg
Guided tour in Boston,3.0,41.2,3 voyageurs,9.3,"Free ! Cancel free of charge up to 48 hours before the activity. If you cancel sooner or you do not show up, no refund will be offered.",2 heures,[1],Boston,42.3594707,-71.0553737,https://cdn2.civitatis.com/estados-unidos/boston/galeria/custom-house-tower.jpg
Boston Tourist Trolley,3.0,84.1,129 voyageurs,8.7,Non refundable. This activity does not allow cancellation.,1 jour - 2 jours,[1],Boston,42.3630547,-71.0664598,https://cdn2.civitatis.com/estados-unidos/boston/galeria/skyline-boston-trolebus.jpg
Boston Amphibious Bus Tour,-1.0,18.4,322 voyageurs,-1.0,"If you cancel right after booking, we will refund 100% of the total amount. If you do not show up, no refund will be offered.",1h20,[2],Boston,42.3630547,-71.0664598,https://cdn2.civitatis.com/estados-unidos/boston/galeria/disfrutando-tour-duck-boston.jpg
Boston Jet Boat Experience,-1.0,43.4,19 voyageurs,-1.0,Non refundable. This activity does not admit any cancellation or modification.,45 minutes,[-1],Boston,42.359709,-71.0507542,https://cdn2.civitatis.com/estados-unidos/boston/galeria/grupo-disfrutando-experiencia-jet-boat-codzilla.jpg
Visit to the film sets of series and films,-1.0,47.6,850 voyageurs,-1.0,"Free ! Cancel free of charge up to 48 hours before the activity. If you cancel sooner or you do not show up, no refund will be offered.",1h30,[1],Boston,42.355519,-71.063828,https://cdn2.civitatis.com/estados-unidos/boston/galeria/osito-ted-boston.jpg
Boston CityPASS,-1.0,50.4,2 voyageurs,-1.0,Non refundable. This activity does not admit any cancellation or modification.,9 jours,[-1],Boston,42.3630547,-71.0664598,https://cdn2.civitatis.com/estados-unidos/boston/galeria/tarjeta-boston-city-pass.jpg
Pub Crawl: pub crawl in Boston!,-1.0,48.8,32 voyageurs,-1.0,Non refundable. This activity does not allow cancellation.,2h15,[1],Boston,42.3600996,-71.0582533,https://cdn2.civitatis.com/estados-unidos/boston/galeria/boston-fiesta.jpg
Ferry transfer to Salem,1.0,34.0,11 voyageurs,10.0,Non refundable. This activity does not allow cancellation.,50 minutes,[-1],Boston,42.359709,-71.0507711,https://cdn2.civitatis.com/estados-unidos/boston/galeria/casa-bruja-salem-usa.jpg
Go City Boston All Inclusive Pass,6.0,63.3,17 voyageurs,8.0,"Free ! Cancel free of charge up to 24 hours before the activity. If you cancel sooner or you do not show up, no refund will be offered.",1 jour - 7 jours,[-1],Boston,42.3630547,-71.0664598,https://cdn2.civitatis.com/estados-unidos/boston/galeria/duck-tipico-boston.jpg
Whale Watching in Boston,-1.0,44.6,26 voyageurs,-1.0,Non refundable. This activity does not admit any cancellation or modification.,3h30,[1],Boston,42.3597895,-71.0507847,https://cdn2.civitatis.com/estados-unidos/boston/galeria/ballena-saltando-barco.jpg
Ferry pour Provincetown,-1.0,25.9,51 voyageurs,-1.0,Non refundable. This activity does not allow cancellation.,1h30,[-1],Boston,42.359709,-71.0507711,https://cdn2.civitatis.com/estados-unidos/boston/galeria/playa-provincetown.jpg
Boston Ghosts Trolley,-1.0,58.5,15 voyageurs,-1.0,Non refundable. This activity does not allow cancellation.,1h30 - 1h40,[1],Boston,42.36001067221911,-71.05163535334061,https://cdn2.civitatis.com/estados-unidos/boston/galeria/boston-state-house.jpg
Boston Food Tour,-1.0,64.3,268 voyageurs,-1.0,"Free ! Cancel free of charge up to 48 hours before the activity. If you cancel sooner or you do not show up, no refund will be offered.",2h - 5h,[1],Boston,42.3597819,-71.0516784,https://cdn2.civitatis.com/estados-unidos/boston/galeria/sandwiches-boston.jpg
Boston Donut Tour,-1.0,61.3,2 voyageurs,-1.0,"Free ! Cancel free of charge up to 48 hours before the activity. If you cancel sooner or you do not show up, no refund will be offered.",2 heures,[1],Boston,42.356273,-71.0527277,https://cdn2.civitatis.com/estados-unidos/boston/galeria/donut-boston-cream.jpg
"Historic Boston Tour: Cambridge, Lexington and Concord",-1.0,43.6,19 voyageurs,-1.0,Non refundable. This activity does not allow cancellation.,4h30 - 7h,[1],Boston,42.3516273,-71.069124,https://cdn2.civitatis.com/estados-unidos/boston/galeria/boston.jpg
Muir Woods and Sausalito Tour,-1.0,65.2,35 voyageurs,-1.0,Non refundable. This activity does not allow cancellation.,4h - 6h,[1],San Francisco,37.78847,-122.409794,https://cdn2.civitatis.com/estados-unidos/san-francisco/galeria/muir-woods-secuoyas-gigantes.jpg
Bike rental in San Francisco,2.0,37.7,3 voyageurs,10.0,"Free ! Cancel free of charge up to 24 hours before the activity. If you cancel sooner or you do not show up, no refund will be offered.",1 jour,[-1],San Francisco,37.8060204,-122.4206351,https://cdn2.civitatis.com/estados-unidos/san-francisco/galeria/bicicleta-playa.jpg
San Francisco Tourist Bus,135.0,52.9,2 voyageurs,8.6,"Free ! Cancel free of charge up to 24 hours before the activity. If you cancel sooner or you do not show up, no refund will be offered.",1 jour - 2 jours,[2],San Francisco,37.8089625,-122.4123686,https://cdn2.civitatis.com/estados-unidos/san-francisco/galeria/autobus-turistico.jpg
Boat trip in San Francisco Bay,142.0,74.6,2 442 voyageurs,9.4,Non refundable. This activity does not allow cancellation.,1 heure,[2],San Francisco,37.80925,-122.413327,https://cdn2.civitatis.com/estados-unidos/san-francisco/galeria/paseo-barco-san-francisco.jpg
Go City : San Francisco All-Inclusive Pass,35.0,30.2,,8.5,"Free ! Cancel free of charge up to 24 hours before the activity. If you cancel sooner or you do not show up, no refund will be offered.",1 jour - 5 jours,[-1],San Francisco,37.7786899,-122.4281743,https://cdn2.civitatis.com/estados-unidos/san-francisco/galeria/san-francisco.jpg
Cruise under the bridges of San Francisco,107.0,46.7,33 voyageurs,9.5,Non refundable. This activity does not allow cancellation.,1h30,[2],San Francisco,37.80925,-122.413327,https://cdn2.civitatis.com/estados-unidos/san-francisco/galeria/crucero-san-francisco-golden-gate.jpg
Comprehensive San Francisco Tour,2.0,35.9,4 voyageurs,9.0,Non refundable. This activity does not allow cancellation.,4 heures,[1],San Francisco,37.7786899,-122.4281743,https://cdn2.civitatis.com/estados-unidos/san-francisco/galeria/san-francisco-plaza-alamo.jpg
Tour of historic neighborhoods in San Francisco,-1.0,54.6,778 voyageurs,-1.0,Non refundable. This activity does not allow cancellation.,3h30,[2],San Francisco,37.784737,-122.407666,https://cdn2.civitatis.com/estados-unidos/san-francisco/galeria/cable-car-san-francisco.jpg
Free tour in San Francisco,1005.0,63.3,24 voyageurs,9.3,-1,2h30,[1],San Francisco,37.7881346,-122.4081967,https://cdn2.civitatis.com/estados-unidos/san-francisco/galeria/dragon-gate.jpg
eSIM card with Internet in the United States,16.0,45.3,24 voyageurs,6.4,Non refundable. This activity does not admit any cancellation or modification.,10 jours - 30 jours,[-1],San Francisco,37.7786899,-122.4281743,https://cdn2.civitatis.com/estados-unidos/nueva-york/galeria/mujer-trabajo-movil-nueva-york.jpg
San Francisco CityPASS,-1.0,56.6,4 voyageurs,-1.0,Non refundable. This activity does not admit any cancellation or modification.,9 jours,[-1],San Francisco,37.7786899,-122.4281743,https://cdn2.civitatis.com/estados-unidos/san-francisco/galeria/tarjeta-san-francisco-city-pass.jpg
Go City : San Francisco Explorer Pass,6.0,49.0,6 voyageurs,9.3,"Free ! Cancel free of charge up to 24 hours before the activity. If you cancel sooner or you do not show up, no refund will be offered.",-1,[-1],San Francisco,37.7786899,-122.4281743,https://cdn2.civitatis.com/estados-unidos/san-francisco/galeria/steph-curry-madame-tussauds-san-francisco.jpg
Private tour in San Francisco with English-speaking guide,1.0,0.0,1 voyageur,10.0,"Free ! Cancel free of charge up to 3 days before the activity. If you cancel sooner or you do not show up, no refund will be offered.",-1,[2],San Francisco,37.7786899,-122.4281743,https://cdn2.civitatis.com/estados-unidos/san-francisco/galeria/puente-famoso-san-francisco.jpg
"7-Day San Francisco, Las Vegas, and Arizona Desert Tour",-1.0,21.2,8 voyageurs,-1.0,"Free ! Cancel free of charge up to 24 hours before the activity. If you cancel sooner or you do not show up, no refund will be offered.",7 jours,[2],San Francisco,37.779,-122.416639,https://cdn2.civitatis.com/estados-unidos/san-francisco/galeria/curva-herradura.jpg
Open Top Bus Night Tour of San Francisco,8.0,71.8,2 voyageurs,5.8,"Free ! Cancel free of charge up to 24 hours before the activity. If you cancel sooner or you do not show up, no refund will be offered.",1h30,[1],San Francisco,37.8084589,-122.4139766,https://cdn2.civitatis.com/estados-unidos/san-francisco/galeria/golden-gate-noche.jpg
Visit of San Francisco and d'Alcatraz,2.0,54.8,,9.0,"Free ! Cancel free of charge up to 24 hours before the activity. If you cancel sooner or you do not show up, no refund will be offered.",7h30,[1],San Francisco,37.788422,-122.409729,https://cdn2.civitatis.com/estados-unidos/san-francisco/galeria/san-francisco-plaza-alamo.jpg
Guided tour in alternative and artistic San Francisco,1.0,236.2,1 860 voyageurs,10.0,Non refundable. This activity does not allow cancellation.,3h30,[2],San Francisco,37.752483,-122.418424,https://cdn2.civitatis.com/estados-unidos/san-francisco/galeria/edificios-san-francisco.jpg
Catamaran ride at sunset,8.0,1256.0,433 voyageurs,8.0,"Free ! Cancel free of charge up to 3 days before the activity. If you cancel sooner or you do not show up, no refund will be offered.",1h30,[2],San Francisco,37.810211,-122.410919,https://cdn2.civitatis.com/estados-unidos/san-francisco/galeria/catamaran-alcatraz.jpg
Free night tour in San Francisco,37.0,33.0,16 voyageurs,7.8,-1,2 heures,[1],San Francisco,37.78807379,-122.40809,https://cdn2.civitatis.com/estados-unidos/san-francisco/galeria/vista-aerea-san-francisco-noche.jpg
Seaplane flight over San Francisco Bay,1.0,118.1,98 voyageurs,10.0,"Free ! Cancel free of charge up to 3 days before the activity. If you cancel sooner or you do not show up, no refund will be offered.",20 min - 1h,[1],San Francisco,37.8790905,-122.5136332,https://cdn2.civitatis.com/estados-unidos/san-francisco/galeria/hidroavion-san-francisco.jpg
Muir Woods and the vineyards of California,97.0,49.0,506 voyageurs,7.9,"If you cancel more than 3 days in advance, you will have to pay a penalty of 35 US$ (33 €). If you cancel sooner or you do not show up, no refund will be offered.",-1,[3],San Francisco,37.7786899,-122.4281743,https://cdn2.civitatis.com/estados-unidos/san-francisco/galeria/valle-napa-cartel.jpg
Billet pour Madame Tussauds,-1.0,70.8,20 voyageurs,-1.0,Non refundable. This activity does not admit any cancellation or modification.,-1,[-1],San Francisco,37.808219,-122.4149723,https://cdn2.civitatis.com/estados-unidos/san-francisco/galeria/alfred-hitchcock-madame-tussauds-san-francisco.jpg
Iconic San Francisco Tour,-1.0,0.0,55 voyageurs,-1.0,"Free ! Cancel free of charge up to 3 days before the activity. If you cancel sooner or you do not show up, no refund will be offered.",3 heures,[2],San Francisco,37.788495,-122.406827,https://cdn2.civitatis.com/estados-unidos/san-francisco/galeria/mujer-chinatown-san-francisco.jpg
Catamaran ride in San Francisco Bay,2.0,178.5,7 voyageurs,10.0,"Free ! Cancel free of charge up to 3 days before the activity. If you cancel sooner or you do not show up, no refund will be offered.",1h30,[2],San Francisco,37.810211,-122.410919,https://cdn2.civitatis.com/estados-unidos/san-francisco/galeria/catamaran-skyline-san-francisco.jpg
San Francisco Cruise with Lunch,-1.0,159.6,44 voyageurs,-1.0,Non refundable. This activity does not allow cancellation.,3 heures,[-1],San Francisco,37.7980159,-122.3950635,https://cdn2.civitatis.com/estados-unidos/san-francisco/galeria/pareja-crucero-san-francisco.jpg
San Francisco Food Tour,2.0,28.3,368 voyageurs,10.0,"Free ! Cancel free of charge up to 24 days before the activity. If you cancel sooner or you do not show up, no refund will be offered.",2 heures,[1],San Francisco,37.7786899,-122.4281743,https://cdn2.civitatis.com/estados-unidos/san-francisco/galeria/tour-gatsronomico-north-beach.jpg
Segway ride in San Francisco,1.0,45.3,3 869 voyageurs,10.0,"Free ! Cancel free of charge up to 3 days before the activity. If you cancel sooner or you do not show up, no refund will be offered.",2h30,[1],San Francisco,37.8063254,-122.4213808,https://cdn2.civitatis.com/estados-unidos/san-francisco/galeria/disfrutando-tour-diurno-segway-san-francisco.jpg
San Francisco GoCar Tour,4.0,56.6,12 voyageurs,9.0,"Free ! Cancel free of charge up to 24 hours before the activity. If you cancel sooner or you do not show up, no refund will be offered.",1h - 3h,[2],San Francisco,37.8070699,-122.4183242,https://cdn2.civitatis.com/estados-unidos/san-francisco/galeria/tour-gocar-san-francisco.jpg
Napa and Sonoma Wine Valleys Tour,4.0,105.8,2 voyageurs,9.5,Non refundable. This activity does not allow cancellation.,8 heures,[1],San Francisco,37.7786899,-122.4281743,https://cdn2.civitatis.com/estados-unidos/san-francisco/galeria/valle-napa.jpg
San Francisco Sightseeing Bus + Alcatraz Ticket,8.0,61.4,2 voyageurs,7.5,"Free ! Cancel free of charge up to 10 days before the activity. If you cancel sooner or you do not show up, no refund will be offered.",1 jour,[-1],San Francisco,37.808416,-122.413925,https://cdn2.civitatis.com/estados-unidos/san-francisco/galeria/panoramica-isla-alcatraz.jpg
4-day tour from San Francisco to Las Vegas ending in Los Angeles,-1.0,74.6,,-1.0,"Free ! Cancel free of charge up to 24 hours before the activity. If you cancel sooner or you do not show up, no refund will be offered.",4 jours,[2],San Francisco,37.77890627795479,-122.41649709391976,https://cdn2.civitatis.com/estados-unidos/san-francisco/galeria/casas-nob-hill.jpg
Excursion to Carmel and Monterey from San Francisco,2.0,489.4,64 voyageurs,8.0,Non refundable. This activity does not allow cancellation.,11 heures,[1],San Francisco,37.7786899,-122.4281743,https://cdn2.civitatis.com/estados-unidos/san-francisco/galeria/autopista-1.jpg
Ticket to the California Academy of Sciences,1.0,87.3,43 voyageurs,10.0,Non refundable. This activity does not allow cancellation.,-1,[-1],San Francisco,37.76985,-122.4662436,https://cdn2.civitatis.com/estados-unidos/san-francisco/galeria/tiranosaurio-rex.jpg
San Francisco Viewpoints and Hills Tour,-1.0,140.7,1 182 voyageurs,-1.0,"Free ! Cancel free of charge up to 3 days before the activity. If you cancel sooner or you do not show up, no refund will be offered.",3 heures,[2],San Francisco,37.796037,-122.393769,https://cdn2.civitatis.com/estados-unidos/san-francisco/galeria/mirador-alcatraz.jpg
Visit to Fisherman's Wharf,-1.0,103.9,1 024 voyageurs,-1.0,"Free ! Cancel free of charge up to 24 hours before the activity. If you cancel sooner or you do not show up, no refund will be offered.",1 heure,[1],San Francisco,37.80683122736475,-122.4209663011869,https://cdn2.civitatis.com/estados-unidos/san-francisco/galeria/fishermans-wharf-san-francisco.jpg
San Francisco Bay Bike Ride,1.0,660.5,788 voyageurs,8.0,Non refundable. This activity does not allow cancellation.,3h30,[2],San Francisco,37.8060204,-122.4206351,https://cdn2.civitatis.com/estados-unidos/san-francisco/galeria/golden-gate.jpg
Excursion au Parc National de Yosemite,288.0,89.7,18 voyageurs,7.8,"If you cancel more than 3 days in advance, you will have to pay a penalty of 35 US$ (33 €). If you cancel sooner or you do not show up, no refund will be offered.",-1,[1],San Francisco,37.7786899,-122.4281743,https://cdn2.civitatis.com/estados-unidos/san-francisco/galeria/yosemite-capitan.jpg
eSIM card with Internet in the United States,16.0,37.7,3 voyageurs,6.4,Non refundable. This activity does not admit any cancellation or modification.,10 jours - 30 jours,[-1],Washington,38.9439587,-76.9606802,https://cdn2.civitatis.com/estados-unidos/nueva-york/galeria/mujer-trabajo-movil-nueva-york.jpg
Arlington Cemetery and Washington Memorials Tour,1.0,45.3,66 voyageurs,10.0,Non refundable. This activity does not allow cancellation.,4 heures,[1],Washington,38.8941624,-77.023403,https://cdn2.civitatis.com/estados-unidos/washington/galeria/cementerio-arlington.jpg
Guided tour of Washington DC,-1.0,23.6,1 voyageur,-1.0,"Free ! Cancel free of charge up to 7 days before the activity. If you cancel sooner or you do not show up, no refund will be offered.",3 heures,[2],Washington,38.894446,-77.022382,https://cdn2.civitatis.com/estados-unidos/washington/galeria/national-mall-washington.jpg
Washington DC Tourist Bus,40.0,69.0,5 voyageurs,7.0,"Free ! Cancel free of charge up to 24 hours before the activity. If you cancel sooner or you do not show up, no refund will be offered.",1 jour - 2 jours,[2],Washington,38.9439587,-76.9606802,https://cdn2.civitatis.com/estados-unidos/washington/galeria/casa-blanca.jpg
Washington DC Segway Ride,-1.0,188.0,10 voyageurs,-1.0,"Free ! Cancel free of charge up to 3 days before the activity. If you cancel sooner or you do not show up, no refund will be offered.",2h30,[1],Washington,38.87913644,-77.02348728,https://cdn2.civitatis.com/estados-unidos/washington/galeria/disfrutando-tour-segway-washington.jpg
Arlington Cemetery Tourist Train,-1.0,21.2,48 voyageurs,-1.0,Non refundable. This activity does not allow cancellation.,1 jour,[1],Washington,38.8829533,-77.0677435,https://cdn2.civitatis.com/estados-unidos/washington/galeria/trolebus-cementerio-arlington.jpg
Excursion shopping au Leesburg Premium Outlets,1.0,74.6,1 041 voyageurs,10.0,"Free ! Cancel free of charge up to 24 hours before the activity. If you cancel sooner or you do not show up, no refund will be offered.",-1,"[1, -1, -1]",Washington,38.9439587,-76.9606802,https://cdn2.civitatis.com/estados-unidos/washington/galeria/amigas-compras-leesburg-premium-outlets.jpg
Convertible Bus Night Tour,-1.0,61.4,6 905 voyageurs,-1.0,"Free ! Cancel free of charge up to 24 hours before the activity. If you cancel sooner or you do not show up, no refund will be offered.",1h30,[2],Washington,38.88416848,-77.02550026,https://cdn2.civitatis.com/estados-unidos/washington/galeria/national-mall-washington.jpg
Washington Lunch Cruise,-1.0,41.6,688 voyageurs,-1.0,Non refundable. This activity does not admit any cancellation or modification.,2 heures,[-1],Washington,38.8748947,-77.0212048,https://cdn2.civitatis.com/estados-unidos/washington/galeria/crucero-rio-potomac.jpg
Washington Dinner Cruise,-1.0,60.4,4 464 voyageurs,-1.0,Non refundable. This activity does not admit any cancellation or modification.,2h30,[-1],Washington,38.8748947,-77.0212048,https://cdn2.civitatis.com/estados-unidos/washington/galeria/vista-agua-old-town-alexandria-noche.jpg
Bike ride in Washington,-1.0,17.0,,-1.0,"Free ! Cancel free of charge up to 3 days before the activity. If you cancel sooner or you do not show up, no refund will be offered.",3 heures,[1],Washington,38.88082,-77.0283605,https://cdn2.civitatis.com/estados-unidos/washington/galeria/disfrutando-tour-bicicleta-washington.jpg
Washington DC Whiskey Tasting Pass,-1.0,77.4,2 957 voyageurs,-1.0,Non refundable. This activity does not allow cancellation.,-1,[1],Washington,38.9439587,-76.9606802,https://cdn2.civitatis.com/estados-unidos/washington/galeria/cotton-reed.jpg
Bike rental in Washington DC,-1.0,56.6,641 voyageurs,-1.0,"Free ! Cancel free of charge up to 24 hours before the activity. If you cancel sooner or you do not show up, no refund will be offered.",2h - 1j,[-1],Washington,38.8808723,-77.0284367,https://cdn2.civitatis.com/estados-unidos/washington/galeria/vistas-capitolio.jpg
Washington Night Bike Tour,-1.0,41.6,1 638 voyageurs,-1.0,"Free ! Cancel free of charge up to 3 days before the activity. If you cancel sooner or you do not show up, no refund will be offered.",3 heures,[1],Washington,38.87913644,-77.02348728,https://cdn2.civitatis.com/estados-unidos/washington/galeria/monumento-soldado-arlington-noche.jpg
Washington Tourist Trolley,-1.0,105.6,134 voyageurs,-1.0,Non refundable. This activity does not allow cancellation.,1 jour,"[2, -1]",Washington,38.89630085008338,-77.02622486837593,https://cdn2.civitatis.com/estados-unidos/washington/galeria/trolebus-washington.jpg
Billet pour Madame Tussauds,-1.0,194.6,41 voyageurs,-1.0,Non refundable. This activity does not admit any cancellation or modification.,-1,[-1],Washington,38.8977613,-77.0263373,https://cdn2.civitatis.com/estados-unidos/washington/galeria/museo-cera-obama.jpg
eSIM card with Internet in the United States,16.0,41.5,2 567 voyageurs,6.4,Non refundable. This activity does not admit any cancellation or modification.,10 jours - 30 jours,[-1],Chicago,41.9022766,-87.628804,https://cdn2.civitatis.com/estados-unidos/nueva-york/galeria/mujer-trabajo-movil-nueva-york.jpg
Chicago Architecture Tour,109.0,46.3,6 voyageurs,9.4,"Free ! Cancel free of charge up to 48 hours before the activity. If you cancel sooner or you do not show up, no refund will be offered.",2h30,[1],Chicago,41.8853865,-87.6276188,https://cdn2.civitatis.com/estados-unidos/chicago/galeria/the-bean-chicago.jpg
Chicago Sightseeing Bus,18.0,16.0,80 voyageurs,9.1,"Free ! Cancel free of charge up to 24 hours before the activity. If you cancel sooner or you do not show up, no refund will be offered.",1 jour - 2 jours,[1],Chicago,41.9022766,-87.628804,https://cdn2.civitatis.com/estados-unidos/chicago/galeria/millennium-park.jpg
Private Chicago Tour,-1.0,46.3,67 voyageurs,-1.0,"Free ! Cancel free of charge up to 24 hours before the activity. If you cancel sooner or you do not show up, no refund will be offered.",-1,[2],Chicago,41.9022766,-87.628804,https://cdn2.civitatis.com/estados-unidos/chicago/galeria/chicago-cloud-gate.jpg
Chicago CityPASS,3.0,46.3,23 voyageurs,10.0,Non refundable. This activity does not admit any cancellation or modification.,9 jours,[-1],Chicago,41.9022766,-87.628804,https://cdn2.civitatis.com/estados-unidos/chicago/galeria/city-pass-chicago.jpg
Go City : Chicago Explorer Pass,16.0,21.6,4 voyageurs,8.6,"Free ! Cancel free of charge up to 24 hours before the activity. If you cancel sooner or you do not show up, no refund will be offered.",-1,[-1],Chicago,41.9022766,-87.628804,https://cdn2.civitatis.com/estados-unidos/chicago/galeria/navy-pier-chicago.jpg
Lincoln Park Ghost Tour,-1.0,21.2,179 voyageurs,-1.0,Non refundable. This activity does not allow cancellation.,2 heures,[1],Chicago,41.911741,-87.631926,https://cdn2.civitatis.com/estados-unidos/chicago/galeria/vista-panoramica-lincoln-park-noche.jpg
Open Top Bus Night Tour,-1.0,46.3,159 voyageurs,-1.0,"Free ! Cancel free of charge up to 24 hours before the activity. If you cancel sooner or you do not show up, no refund will be offered.",1h30,[1],Chicago,41.89215944,-87.61039101,https://cdn2.civitatis.com/estados-unidos/chicago/galeria/autobus-nocturno-chicago.jpg
Go Chicago All-Inclusive Pass,-1.0,41.6,3 voyageurs,-1.0,Non refundable. This activity does not admit any cancellation or modification.,1 jour - 5 jours,[-1],Chicago,41.9022766,-87.628804,https://cdn2.civitatis.com/estados-unidos/chicago/galeria/chica-saltando-skydeck-chicago.jpg
Chicago Donut Tour,-1.0,75.5,48 voyageurs,-1.0,"Free ! Cancel free of charge up to 48 hours before the activity. If you cancel sooner or you do not show up, no refund will be offered.",2 heures,[1],Chicago,41.88929706,-87.63539411,https://cdn2.civitatis.com/estados-unidos/chicago/galeria/amigos-donut.jpg
Chicago Dinner Cruise,3.0,107.7,698 voyageurs,8.0,Non refundable. This activity does not admit any cancellation or modification.,2h30,[-1],Chicago,41.8917622,-87.6025381,https://cdn2.civitatis.com/estados-unidos/chicago/galeria/cena-especial-chicago.jpg
Millenium Park and Lake Michigan Bike Ride,-1.0,113.3,2 voyageurs,-1.0,"Free ! Cancel free of charge up to 3 days before the activity. If you cancel sooner or you do not show up, no refund will be offered.",3h30,[2],Chicago,41.89336,-87.61489,https://cdn2.civitatis.com/estados-unidos/chicago/galeria/disfrutando-tour-bicicleta-chicago.jpg
Chicago Food Tour,-1.0,61.4,2 voyageurs,-1.0,"Free ! Cancel free of charge up to 48 hours before the activity. If you cancel sooner or you do not show up, no refund will be offered.",2 heures,[1],Chicago,41.89644429206008,-87.62655289369381,https://cdn2.civitatis.com/estados-unidos/chicago/galeria/pizza-palto-hondo-chicago.jpg
Scenic Chicago Ghost Tour,-1.0,27.4,1 voyageur,-1.0,Non refundable. This activity does not allow cancellation.,3 heures,[1],Chicago,41.911741,-87.631926,https://cdn2.civitatis.com/estados-unidos/chicago/galeria/fantasmas-calles-chicago.jpg
Guided tour of the Chicago Theater,6.0,24.5,1 voyageur,8.7,"Free ! Cancel free of charge up to 48 hours before the activity. If you cancel sooner or you do not show up, no refund will be offered.",1 heure,[1],Chicago,41.885242,-87.627761,https://cdn2.civitatis.com/estados-unidos/chicago/galeria/entrada-chicago-theatre.jpg
360 Chicago Observation Deck Ticket,17.0,93.5,3 voyageurs,8.2,"Free ! Cancel free of charge up to 24 hours before the activity. If you cancel sooner or you do not show up, no refund will be offered.",-1,[-1],Chicago,41.8988264,-87.6252221,https://cdn2.civitatis.com/estados-unidos/chicago/galeria/360-chicago.jpg
Chicago Scenic Tour,-1.0,37.7,6 voyageurs,-1.0,"Free ! Cancel free of charge up to 3 days before the activity. If you cancel sooner or you do not show up, no refund will be offered.",4 heures,[1],Chicago,41.882491,-87.624325,https://cdn2.civitatis.com/estados-unidos/chicago/galeria/museo-campus.jpg
Universal Studios Hollywood Tickets,157.0,171.5,13 voyageurs,9.5,Non refundable. This activity does not admit any cancellation or modification.,-1,[-1],Los Angeles,34.1381168,-118.3533783,https://cdn2.civitatis.com/estados-unidos/los-angeles/galeria/escenario-universal-studios-fuego.jpg
Guided tour through Hollywood Boulevard,-1.0,66.6,1 voyageur,-1.0,Non refundable. This activity does not allow cancellation.,2h30,[2],Los Angeles,34.102361,-118.339222,https://cdn2.civitatis.com/estados-unidos/los-angeles/galeria/fachada-teatro-chino.jpg
Venice Beach Tour,-1.0,55.7,2 voyageurs,-1.0,"Free ! Cancel free of charge up to 7 days before the activity. If you cancel more than 3 days in advance, we will refund you 50%. If you cancel sooner or you do not show up, no refund will be offered.",3 heures,[2],Los Angeles,33.98728,-118.47263,https://cdn2.civitatis.com/estados-unidos/los-angeles/galeria/casas-venice-beach-los-angeles.jpg
Tour through historic downtown Los Angeles,-1.0,46.3,18 voyageurs,-1.0,Non refundable. This activity does not allow cancellation.,-1,[2],Los Angeles,34.056056,-118.236833,https://cdn2.civitatis.com/estados-unidos/los-angeles/galeria/visite-guidee-coeur-historique-downtown-los-angeles.jpg
eSIM card with Internet in the United States,16.0,17.0,41 voyageurs,6.4,Non refundable. This activity does not admit any cancellation or modification.,10 jours - 30 jours,[-1],Los Angeles,34.0531639,-118.2524682,https://cdn2.civitatis.com/estados-unidos/nueva-york/galeria/mujer-trabajo-movil-nueva-york.jpg
Venice Beach Surf Lessons,1.0,28.3,20 voyageurs,10.0,"Free ! Cancel free of charge up to 24 hours before the activity. If you cancel sooner or you do not show up, no refund will be offered.",2 heures,[1],Los Angeles,33.97777045,-118.46906828,https://cdn2.civitatis.com/estados-unidos/los-angeles/galeria/surf-venice-beach.jpg
2-Day Las Vegas and Hoover Dam Tour,-1.0,50.0,78 voyageurs,-1.0,"Free ! Cancel free of charge up to 24 hours before the activity. If you cancel sooner or you do not show up, no refund will be offered.",2 jours,[2],Los Angeles,34.0531639,-118.2524682,https://cdn2.civitatis.com/estados-unidos/los-angeles/galeria/panoramica-hotel-paris-las-vegas.jpg
Los Angeles Sightseeing Bus,67.0,107.7,17 voyageurs,8.3,"Free ! Cancel free of charge up to 24 hours before the activity. If you cancel sooner or you do not show up, no refund will be offered.",1 jour,[2],Los Angeles,34.0531639,-118.2524682,https://cdn2.civitatis.com/estados-unidos/los-angeles/galeria/autobus-turistico-ciudad-los-angeles.jpg
-1,-1.0,39.0,8 voyageurs,-1.0,-1,-1,[-1],Los Angeles,34.0531639,-118.2524682,-1
Go City : Los Angeles All-Inclusive Pass,18.0,51.9,57 voyageurs,8.6,"Free ! Cancel free of charge up to 24 hours before the activity. If you cancel sooner or you do not show up, no refund will be offered.",1 jour - 7 jours,[-1],Los Angeles,34.0531639,-118.2524682,https://cdn2.civitatis.com/estados-unidos/los-angeles/galeria/muelle-santa-monica.jpg
Ticket to the USS Iowa Museum,2.0,49.0,2 voyageurs,9.0,"Free ! Cancel free of charge up to 48 hours before the activity. If you cancel sooner or you do not show up, no refund will be offered.",-1,[-1],Los Angeles,33.7422355,-118.2773874,https://cdn2.civitatis.com/estados-unidos/los-angeles/galeria/canones-acorazado-uss-iowa.jpg
Guided bike tour in Santa Monica and Venice Beach,-1.0,21.2,3 voyageurs,-1.0,Non refundable. This activity does not allow cancellation.,3h30,[2],Los Angeles,34.015848,-118.494653,https://cdn2.civitatis.com/estados-unidos/los-angeles/galeria/santa-monica-venice-beach.jpg
Go City Los Angeles Explorer Pass,-1.0,55.7,212 voyageurs,-1.0,"Free ! Cancel free of charge up to 24 hours before the activity. If you cancel sooner or you do not show up, no refund will be offered.",-1,[-1],Los Angeles,34.0531639,-118.2524682,https://cdn2.civitatis.com/estados-unidos/los-angeles/galeria/los-angeles-explorer-pass.jpg
5-Day Las Vegas and Arizona Desert Tour,-1.0,65.0,237 voyageurs,-1.0,"Free ! Cancel free of charge up to 24 hours before the activity. If you cancel sooner or you do not show up, no refund will be offered.",5 jours,[2],Los Angeles,34.0531639,-118.2524682,https://cdn2.civitatis.com/estados-unidos/los-angeles/galeria/carretera-monument-valley.jpg
Los Angeles Food Tour,-1.0,297.6,786 voyageurs,-1.0,Non refundable. This activity does not allow cancellation.,3h - 3h15,[1],Los Angeles,33.979414,-118.4668638,https://cdn2.civitatis.com/estados-unidos/los-angeles/galeria/atun-poke.jpg
Kayaking with sea lions in Marina del Rey,1.0,42.5,328 voyageurs,10.0,"Free ! Cancel free of charge up to 3 days before the activity. If you cancel more than 24 hours in advance, you will have to pay a penalty of 20 US$ (18.90 €). If you cancel sooner or you do not show up, no refund will be offered.",2 heures,[1],Los Angeles,33.97933,-118.457965,https://cdn2.civitatis.com/estados-unidos/los-angeles/galeria/navegar-leones-marinos.jpg
Hike to the Hollywood Sign,-1.0,65.2,1 voyageur,-1.0,"Free ! Cancel free of charge up to 7 days before the activity. If you cancel more than 3 days in advance, we will refund you 50%. If you cancel sooner or you do not show up, no refund will be offered.",3 heures,[2],Los Angeles,34.130085,118.32696,https://cdn2.civitatis.com/estados-unidos/los-angeles/galeria/letras-hollywood.jpg
Paddle surfing with sea lions in Marina del Rey,-1.0,93.5,,-1.0,"Free ! Cancel free of charge up to 3 days before the activity. If you cancel more than 24 hours in advance, you will have to pay a penalty of 20 US$ (18.90 €). If you cancel sooner or you do not show up, no refund will be offered.",2 heures,[1],Los Angeles,33.97933,-118.457965,https://cdn2.civitatis.com/estados-unidos/los-angeles/galeria/paddle-surf-leones-marinos.jpg
Excursion à Malibu and from Volkswagen + Surf,-1.0,18.9,7 voyageurs,-1.0,"Free ! Cancel free of charge up to 24 hours before the activity. If you cancel sooner or you do not show up, no refund will be offered.",6 heures,[1],Los Angeles,33.99592,-118.4651215,https://cdn2.civitatis.com/estados-unidos/los-angeles/galeria/furgoneta-volkswagen-surf.jpg
Miami Tourist Bus,63.0,64.0,15 voyageurs,7.3,"Free ! Cancel free of charge up to 24 hours before the activity. If you cancel sooner or you do not show up, no refund will be offered.",1 jour,[2],Miami,25.7616761,-80.1940987,https://cdn2.civitatis.com/estados-unidos/miami/galeria/rascacielos-big-bus.jpg
Boat trip through the Villas of the Stars,367.0,78.4,7 voyageurs,8.5,Non refundable. This activity does not allow cancellation.,1h30,[1],Miami,25.777913,-80.186247,https://cdn2.civitatis.com/estados-unidos/miami/galeria/casas-famosos-miami-civitatis.jpg
Motorboat ride in Miami,41.0,902.4,5 voyageurs,8.5,"Free ! Cancel free of charge up to 8 hours before the activity. If you cancel sooner or you do not show up, no refund will be offered.",45 minutes,[1],Miami,25.777767,-80.185607,https://cdn2.civitatis.com/estados-unidos/miami/galeria/lancha-tipo-thriller.jpg
Everglades Tour,325.0,83.1,334 voyageurs,7.9,"Free ! Cancel free of charge up to 24 hours before the activity. If you cancel sooner or you do not show up, no refund will be offered.",4 heures,"[1, 3]",Miami,25.7616761,-80.1940987,https://cdn2.civitatis.com/estados-unidos/miami/galeria/everglades-aerodeslizador.jpg
eSIM card with Internet in the United States,16.0,65.2,16 voyageurs,6.4,Non refundable. This activity does not admit any cancellation or modification.,10 jours - 30 jours,[-1],Miami,25.7616761,-80.1940987,https://cdn2.civitatis.com/estados-unidos/nueva-york/galeria/mujer-trabajo-movil-nueva-york.jpg
Offer: Contrasts of Miami + Everglades + Boat trip,98.0,51.9,22 voyageurs,9.4,"Free ! Cancel free of charge up to 24 hours before the activity. If you cancel sooner or you do not show up, no refund will be offered.",8 heures,"[1, 3]",Miami,25.7616761,-80.1940987,https://cdn2.civitatis.com/estados-unidos/miami/galeria/pareja-south-beach.jpg
